{"type":"FeatureCollection","features":[{"type":"Feature","geometry":{"type":"Point","coordinates":[-75.1551882,39.9422909]},"properties":{"name":"The Sweet Life Bakeshop","address":"740 South St Philadelphia, PA 19147"}},{"type":"Feature","geometry":{"type":"Point","coordinates":[-75.174133,39.9484101]},"properties":{"name":"The Bakeshop on 20th","address":"269 S 20th St Philadelphia, PA 19103"}},{"type":"Feature","geometry":{"type":"Point","coordinates":[-75.1593829,39.9535983]},"properties":{"name":"Beiler's Bakery","address":"51 N 12th St Philadelphia, PA 19107"}},{"type":"Feature","geometry":{"type":"Point","coordinates":[-75.1572928,39.9556913]},"properties":{"name":"Bread Top House","address":"1041 Race St Philadelphia, PA 19107"}},{"type":"Feature","geometry":{"type":"Point","coordinates":[-75.1608093,39.9480809999999]},"properties":{"name":"J'aime French Bakery","address":"212 S 12th St Philadelphia, PA 19107"}},{"type":"Feature","geometry":{"type":"Point","coordinates":[-75.1574268,39.9552167]},"properties":{"name":"A LA Mousse","address":"145 N 11th St Philadelphia, PA 19107"}},{"type":"Feature","geometry":{"type":"Point","coordinates":[-75.2593632999999,40.0095648]},"properties":{"name":"Au Fouril","address":"234 Woodbine Ave Narberth, PA 19072"}},{"type":"Feature","geometry":{"type":"Point","coordinates":[-75.1597819,39.9393937]},"properties":{"name":"Isgro Pastries","address":"1009 Christian St Philadelphia, PA 19147"}},{"type":"Feature","geometry":{"type":"Point","coordinates":[-75.1619627,39.9197119]},"properties":{"name":"Frangelli's Bakery","address":"847 W Ritner St Philadelphia, PA 19148"}},{"type":"Feature","geometry":{"type":"Point","coordinates":[-75.1732378999999,39.9527767]},"properties":{"name":"Nook Bakery & Coffee Bar","address":"15 S 20th St Philadelphia, PA 19103"}},{"type":"Feature","geometry":{"type":"Point","coordinates":[-75.1684961999999,39.9547029999999]},"properties":{"name":"Termini Bros Bakery","address":"1701 John F Kennedy Blvd Philadelphia, PA 19103"}},{"type":"Feature","geometry":{"type":"Point","coordinates":[-75.145074,39.953873]},"properties":{"name":"Oui","address":"160 N 3rd St Philadelphia, PA 19106"}},{"type":"Feature","geometry":{"type":"Point","coordinates":[-75.1832508999999,39.9531102]},"properties":{"name":"Maison Sweet","address":"2930 Chestnut St Philadelphia, PA 19104"}},{"type":"Feature","geometry":{"type":"Point","coordinates":[-75.1563115,39.9552567]},"properties":{"name":"Mayflower Bakery & Cafe","address":"1008 Race St Philadelphia, PA 19107"}},{"type":"Feature","geometry":{"type":"Point","coordinates":[-75.1580443,39.9298013]},"properties":{"name":"Termini Bros Bakery","address":"1523 S 8th St Philadelphia, PA 19147"}},{"type":"Feature","geometry":{"type":"Point","coordinates":[-75.2105014999999,39.9434198999999]},"properties":{"name":"Four Worlds Bakery","address":"4634 Woodland Philadelphia, PA 19143"}},{"type":"Feature","geometry":{"type":"Point","coordinates":[-75.1438627,39.9518037]},"properties":{"name":"Tartes Pastry Shop","address":"212 Arch St Philadelphia, PA 19106"}},{"type":"Feature","geometry":{"type":"Point","coordinates":[-75.1421790999999,39.9649649]},"properties":{"name":"Tartes Pastry Shop","address":"901 N 3rd St Philadelphia, PA 19123"}},{"type":"Feature","geometry":{"type":"Point","coordinates":[-75.1737505,39.9673072]},"properties":{"name":"Ursa Bakery","address":"N 22nd St & Fairmount Ave Philadelphia, PA 19130"}},{"type":"Feature","geometry":{"type":"Point","coordinates":[-75.1834593999999,40.0487702]},"properties":{"name":"The Frosted Fox Cake Shop","address":"6511 Germantown Ave Philadelphia, PA 19119"}},{"type":"Feature","geometry":{"type":"Point","coordinates":[-75.0572171,40.0263359]},"properties":{"name":"Haegele's Bakery","address":"4164 Barnett St Philadelphia, PA 19135"}},{"type":"Feature","geometry":{"type":"Point","coordinates":[-75.156041,39.953863]},"properties":{"name":"KC's Pastries","address":"109 N 10th St Philadelphia, PA 19107"}},{"type":"Feature","geometry":{"type":"Point","coordinates":[-75.1598279999999,39.9252954]},"properties":{"name":"Machine Shop","address":"1901 S 9th St Philadelphia, PA 19148"}},{"type":"Feature","geometry":{"type":"Point","coordinates":[-75.1695180999999,39.9512789]},"properties":{"name":"Gran Caffe L'Aquila","address":"1716 Chestnut St Philadelphia, PA 19103"}},{"type":"Feature","geometry":{"type":"Point","coordinates":[-75.1578313,39.9401063]},"properties":{"name":"Sarcone's Bakery","address":"758 S 9th St Philadelphia, PA 19147"}},{"type":"Feature","geometry":{"type":"Point","coordinates":[-75.1648445,39.9322174]},"properties":{"name":"Mighty Bread Company","address":"1211 Gerritt St Philadelphia, PA 19147"}},{"type":"Feature","geometry":{"type":"Point","coordinates":[-75.1728468,39.9481791]},"properties":{"name":"Metropolitan Bakery","address":"262 S 19th St Philadelphia, PA 19103"}},{"type":"Feature","geometry":{"type":"Point","coordinates":[-75.1347412,39.9704611]},"properties":{"name":"Cake Life Bake Shop","address":"1306 Frankford Ave Philadelphia, PA 19125"}},{"type":"Feature","geometry":{"type":"Point","coordinates":[-75.1275498999999,39.974562]},"properties":{"name":"Whipped Bakeshop","address":"636 Belgrade St Philadelphia, PA 19125"}},{"type":"Feature","geometry":{"type":"Point","coordinates":[-75.1665256,39.9206548]},"properties":{"name":"Amigo's Bakery","address":"2327 S 12th St Philadelphia, PA 19148"}},{"type":"Feature","geometry":{"type":"Point","coordinates":[-75.1664515,39.9263258999999]},"properties":{"name":"Artisan Boulanger Patissier","address":"1218 Mifflin St Philadelphia, PA 19148"}},{"type":"Feature","geometry":{"type":"Point","coordinates":[-75.1154993999999,39.9788936]},"properties":{"name":"Stock's Bakery","address":"2614 E Lehigh Ave Philadelphia, PA 19125"}},{"type":"Feature","geometry":{"type":"Point","coordinates":[-75.1409523,39.9616445]},"properties":{"name":"The Kettle Black","address":"631 N 2nd St Philadelphia, PA 19123"}},{"type":"Feature","geometry":{"type":"Point","coordinates":[-75.1642854999999,39.9289697]},"properties":{"name":"Kouklet Brazilian Bakehouse","address":"1647 E Passyunk Ave Philadelphia, PA 19148"}},{"type":"Feature","geometry":{"type":"Point","coordinates":[-75.1347412,39.9704611]},"properties":{"name":"Cake Life Bake Shop","address":"1306 Frankford Ave Philadelphia, PA 19125"}},{"type":"Feature","geometry":{"type":"Point","coordinates":[-75.1627855999999,39.9455743]},"properties":{"name":"Sweet Box Cupcakes","address":"339 S 13th St Philadelphia, PA 19107"}},{"type":"Feature","geometry":{"type":"Point","coordinates":[-75.1589396,39.9275589]},"properties":{"name":"La Rosas Cafeteria y Panaderia","address":"1712 S 8th St Philadelphia, PA 19148"}},{"type":"Feature","geometry":{"type":"Point","coordinates":[-75.3974686999999,39.9867576]},"properties":{"name":"R Weinrich German Bakery","address":"3545 W Chester Pike Newtown Square, PA 19073"}},{"type":"Feature","geometry":{"type":"Point","coordinates":[-75.1706505,39.949295]},"properties":{"name":"Aurora Grace","address":"225 S 18th St Philadelphia, PA 19103"}},{"type":"Feature","geometry":{"type":"Point","coordinates":[-75.1849738,39.9749478]},"properties":{"name":"Brewerytown Bakery","address":"2949 W Girard Ave Philadelphia, PA 19130"}},{"type":"Feature","geometry":{"type":"Point","coordinates":[-75.1544241,39.9553565]},"properties":{"name":"Matcha Panda Cafe","address":"202 N 9th St Philadelphia, PA 19107"}},{"type":"Feature","geometry":{"type":"Point","coordinates":[-75.1364011,39.9708891]},"properties":{"name":"Lost Bread Co.","address":"1313 N Howard St Philadelphia, PA 19122"}},{"type":"Feature","geometry":{"type":"Point","coordinates":[-75.1471342999999,40.0683248]},"properties":{"name":"Sol Levante Bakery","address":"1923 Cheltenham Ave Cheltenham, PA 19012"}},{"type":"Feature","geometry":{"type":"Point","coordinates":[-75.0648439,39.958637]},"properties":{"name":"Miguelina Bakery","address":"4928 Westfield Ave Pennsauken Township, NJ 08110"}},{"type":"Feature","geometry":{"type":"Point","coordinates":[-75.2924484999999,40.0745314]},"properties":{"name":"Merenda Box","address":"801 E Hector St Conshohocken, PA 19428"}},{"type":"Feature","geometry":{"type":"Point","coordinates":[-75.1618419,39.9310321]},"properties":{"name":"Essen Bakery","address":"1437 E Passyunk Ave Philadelphia, PA 19147"}},{"type":"Feature","geometry":{"type":"Point","coordinates":[-75.2023802,40.0724965]},"properties":{"name":"Bredenbeck's Bakery & Ice Cream Parlor","address":"8126 Germantown Ave Philadelphia, PA 19118"}},{"type":"Feature","geometry":{"type":"Point","coordinates":[-75.1620478,39.9669063]},"properties":{"name":"Coffee Cream & Dreams","address":"1436 Fairmount Ave Philadelphia, PA 19130"}},{"type":"Feature","geometry":{"type":"Point","coordinates":[-75.1731836,39.9208362]},"properties":{"name":"Cacia's Bakery","address":"1526 W Ritner St Philadelphia, PA 19145"}},{"type":"Feature","geometry":{"type":"Point","coordinates":[-75.0320455,39.9266596999999]},"properties":{"name":"Tous Les Jours","address":"826 Haddonfield Rd Cherry Hill, NJ 08002"}},{"type":"Feature","geometry":{"type":"Point","coordinates":[-75.132352,39.9711799]},"properties":{"name":"Ramona Susan's Bake Shop","address":"1255 Marlborough St Philadelphia, PA 19125"}},{"type":"Feature","geometry":{"type":"Point","coordinates":[-75.1449044,39.9583973]},"properties":{"name":"Darnel's Cakes","address":"444 N 3rd St Philadelphia, PA 19123"}},{"type":"Feature","geometry":{"type":"Point","coordinates":[-75.1721742,39.9514386]},"properties":{"name":"K'Far Cafe","address":"110 S 19th St Philadelphia, PA 19103"}},{"type":"Feature","geometry":{"type":"Point","coordinates":[-75.2361014,40.0356495]},"properties":{"name":"Tasty Twisters Bakery","address":"5002 Umbria St Philadelphia, PA 19128"}},{"type":"Feature","geometry":{"type":"Point","coordinates":[-75.1694170999999,39.9517335]},"properties":{"name":"Paris Baguette","address":"1717 Chestnut St Philadelphia, PA 19103"}},{"type":"Feature","geometry":{"type":"Point","coordinates":[-75.1245145,40.0248892]},"properties":{"name":"BUY the Dozen","address":"123 W. Rockland St. Philadelphia, PA 19120"}},{"type":"Feature","geometry":{"type":"Point","coordinates":[-75.1658815,39.9163136]},"properties":{"name":"Dodo Bakery","address":"2653 S 11th St Philadelphia, PA 19148"}},{"type":"Feature","geometry":{"type":"Point","coordinates":[-75.167009,39.9991622999999]},"properties":{"name":"Denise's Delicacies","address":"2916 N 22nd St Philadelphia, PA 19132"}},{"type":"Feature","geometry":{"type":"Point","coordinates":[-75.1801195,39.9390544]},"properties":{"name":"Small Oven Pastry Shop","address":"2204 Washington Ave Philadelphia, PA 19146"}},{"type":"Feature","geometry":{"type":"Point","coordinates":[-75.2134124999999,40.0320846]},"properties":{"name":"Sugar Moon","address":"6009 Ridge Ave Philadelphia, PA 19128"}},{"type":"Feature","geometry":{"type":"Point","coordinates":[-75.0872586999999,40.0794035]},"properties":{"name":"Danish Bakers","address":"107 Huntingdon Pike Rockledge, PA 19046"}},{"type":"Feature","geometry":{"type":"Point","coordinates":[-75.1558491999999,39.9564551]},"properties":{"name":"International Bakery","address":"232 N 10th St Philadelphia, PA 19107"}},{"type":"Feature","geometry":{"type":"Point","coordinates":[-75.1302524,39.9790846]},"properties":{"name":"Cake & Joe","address":"2012 Frankford Ave Philadelphia, PA 19125"}},{"type":"Feature","geometry":{"type":"Point","coordinates":[-75.1615889999999,39.9284405]},"properties":{"name":"Varallo Brothers Bakery","address":"1639 S 10th St Philadelphia, PA 19148"}},{"type":"Feature","geometry":{"type":"Point","coordinates":[-75.1563403,39.9540112]},"properties":{"name":"Heung Fa Chun Sweet House","address":"112 N 10th St Philadelphia, PA 19107"}},{"type":"Feature","geometry":{"type":"Point","coordinates":[-75.2877828,39.9402863]},"properties":{"name":"My Old Place Bakery","address":"201 Shadeland Ave Lansdowne, PA 19050"}},{"type":"Feature","geometry":{"type":"Point","coordinates":[-75.0284171999999,40.0410115]},"properties":{"name":"Holmesburg Bakery","address":"7935 Frankford Ave Philadelphia, PA 19136"}},{"type":"Feature","geometry":{"type":"Point","coordinates":[-75.1031508,39.9853282]},"properties":{"name":"Baltic Bakery","address":"2617 E Allegheny Ave Philadelphia, PA 19134"}},{"type":"Feature","geometry":{"type":"Point","coordinates":[-75.1584719,39.9537075]},"properties":{"name":"Termini Bros Bakery","address":"12th St & Filbert St Reading Terminal Market Philadelphia, PA 19107"}},{"type":"Feature","geometry":{"type":"Point","coordinates":[-75.1268316,40.0788887]},"properties":{"name":"Tous Les Jours","address":"50 Yorktown Plaza Elkins Park, PA 19027"}},{"type":"Feature","geometry":{"type":"Point","coordinates":[-75.1267261,40.0713918]},"properties":{"name":"Rolings Bakery","address":"7848 Montgomery Ave Elkins Park, PA 19027"}},{"type":"Feature","geometry":{"type":"Point","coordinates":[-75.1156564,40.1427718]},"properties":{"name":"Weinrich's Bakery","address":"55 Easton Rd Willow Grove, PA 19090"}},{"type":"Feature","geometry":{"type":"Point","coordinates":[-75.3904251,39.9182065]},"properties":{"name":"Artisan Boulanger Patissier","address":"29 W State St Media, PA 19063"}},{"type":"Feature","geometry":{"type":"Point","coordinates":[-75.1471902999999,39.9469889999999]},"properties":{"name":"FRIEDA","address":"320 Walnut St Philadelphia, PA 19106"}},{"type":"Feature","geometry":{"type":"Point","coordinates":[-75.2301417,40.0308856]},"properties":{"name":"Marchiano's Bakery","address":"4653 Umbria St Philadelphia, PA 19127"}},{"type":"Feature","geometry":{"type":"Point","coordinates":[-75.1315736,39.9696173]},"properties":{"name":"Gilda Cafe and Market","address":"300 E Girard Ave Philadelphia, PA 19125"}},{"type":"Feature","geometry":{"type":"Point","coordinates":[-75.1558867999999,39.954291]},"properties":{"name":"Zhong Gang Bakery","address":"127 N 10th St Philadelphia, PA 19107"}},{"type":"Feature","geometry":{"type":"Point","coordinates":[-75.0559553,39.9128824999999]},"properties":{"name":"McMillan's Bakery","address":"15 Haddon Ave Haddon Township, NJ 08108"}},{"type":"Feature","geometry":{"type":"Point","coordinates":[-75.1758708,39.9509373]},"properties":{"name":"Carlo's Bakery","address":"2101 Walnut St Philadelphia, PA 19103"}},{"type":"Feature","geometry":{"type":"Point","coordinates":[-75.1659562999999,39.9326102]},"properties":{"name":"Faragalli's Bakery","address":"1400 S 13th St Philadelphia, PA 19147"}},{"type":"Feature","geometry":{"type":"Point","coordinates":[-75.1677363,39.9472393]},"properties":{"name":"Enswell","address":"1528 Spruce St Philadelphia, PA 19102"}},{"type":"Feature","geometry":{"type":"Point","coordinates":[-75.1698253,39.9460875]},"properties":{"name":"J'aime French Café","address":"1644 Pine St Philadelphia, PA 19103"}},{"type":"Feature","geometry":{"type":"Point","coordinates":[-75.1733644,39.9492261]},"properties":{"name":"Vibrant Coffee Roasters & Bakery","address":"222 W Rittenhouse Sq Fl 1 Philadelphia, PA 19103"}},{"type":"Feature","geometry":{"type":"Point","coordinates":[-75.1746646,40.0343502]},"properties":{"name":"Lily Of The Valley Cupcakery and Café","address":"26 W Maplewood Mall Philadelphia, PA 19144"}},{"type":"Feature","geometry":{"type":"Point","coordinates":[-75.285988,40.0075252]},"properties":{"name":"Stoltzfus Baked Goods","address":"120 Coulter Ave Ardmore, PA 19003"}},{"type":"Feature","geometry":{"type":"Point","coordinates":[-75.1978484,40.0683288]},"properties":{"name":"The Night Kitchen","address":"7725 Germantown Ave Philadelphia, PA 19118"}},{"type":"Feature","geometry":{"type":"Point","coordinates":[-75.1730130999999,39.9545206]},"properties":{"name":"Twisted Grounds","address":"47 N 20th St Philadelphia, PA 19130"}},{"type":"Feature","geometry":{"type":"Point","coordinates":[-75.1598736,40.024239]},"properties":{"name":"Merzbacher's of Germantown","address":"4530 Germantown Ave Philadelphia, PA 19144"}},{"type":"Feature","geometry":{"type":"Point","coordinates":[-75.1995565,39.9552373]},"properties":{"name":"Paris Baguette","address":"3816 Chestnut St Unit 9 Philadelphia, PA 19104"}},{"type":"Feature","geometry":{"type":"Point","coordinates":[-75.2163778,40.0350436]},"properties":{"name":"Cafe Roma Bakery","address":"6147 Ridge Ave Philadelphia, PA 19128"}},{"type":"Feature","geometry":{"type":"Point","coordinates":[-75.1358616999999,39.9891986]},"properties":{"name":"Silvia Bakery","address":"2530 N. 2nd St Philadelphia, PA 19133"}},{"type":"Feature","geometry":{"type":"Point","coordinates":[-75.1337925,39.9736936]},"properties":{"name":"Suraya","address":"1528 Frankford Ave Philadelphia, PA 19125"}},{"type":"Feature","geometry":{"type":"Point","coordinates":[-75.2256381999999,40.0305802]},"properties":{"name":"Nutmeg Cake Design","address":"220 Krams Ave Philadelphia, PA 19127"}},{"type":"Feature","geometry":{"type":"Point","coordinates":[-75.3310602,39.8855905]},"properties":{"name":"Maria's Prime Time Bakery","address":"233 Morton Ave Folsom, PA 19033"}},{"type":"Feature","geometry":{"type":"Point","coordinates":[-75.2957081,40.0746568]},"properties":{"name":"Conshohocken Italian Bakery","address":"79 Jones St Conshohocken, PA 19428"}},{"type":"Feature","geometry":{"type":"Point","coordinates":[-75.1702705,39.9569323]},"properties":{"name":"Commons Café","address":"1 Logan Square Philadelphia, PA 19103"}},{"type":"Feature","geometry":{"type":"Point","coordinates":[-75.2610548999999,40.0113601]},"properties":{"name":"A La Mousse","address":"920 Montgomery Ave Narberth, PA 19072"}},{"type":"Feature","geometry":{"type":"Point","coordinates":[-75.1704556999999,39.9521873]},"properties":{"name":"Huda","address":"32 S 18th St Philadelphia, PA 19103"}},{"type":"Feature","geometry":{"type":"Point","coordinates":[-75.1575175999999,39.9547447]},"properties":{"name":"More Sugar","address":"125 N 11th St Philadelphia, PA 19107"}},{"type":"Feature","geometry":{"type":"Point","coordinates":[-75.1598279999999,39.9252954]},"properties":{"name":"Second Daughter Baking","address":"1901 S 9th St Ste 403 Philadelphia, PA 19148"}},{"type":"Feature","geometry":{"type":"Point","coordinates":[-75.1722423,39.9652824]},"properties":{"name":"NaturallySweet Desserts","address":"2041 Green St Fl 2 Philadelphia, PA 19130"}},{"type":"Feature","geometry":{"type":"Point","coordinates":[-75.1588541,39.9341119]},"properties":{"name":"Philly Cannoli King","address":"1205 S 9th St Philadelphia, PA 19147"}},{"type":"Feature","geometry":{"type":"Point","coordinates":[-75.161985,39.9586585]},"properties":{"name":"Ben-Gad Baking Company","address":"317 North Broad St Philadelphia, PA 19107"}},{"type":"Feature","geometry":{"type":"Point","coordinates":[-75.1428765,39.9495617]},"properties":{"name":"The Franklin Fountain","address":"116 Market St Philadelphia, PA 19106"}},{"type":"Feature","geometry":{"type":"Point","coordinates":[-75.1328178999999,40.0270868]},"properties":{"name":"Colombian Bakery","address":"4944 N 5th St Philadelphia, PA 19120"}},{"type":"Feature","geometry":{"type":"Point","coordinates":[-75.0324019999999,39.897579]},"properties":{"name":"Sweet T's Bakeshop","address":"14 Kings Ct Haddonfield, NJ 08033"}},{"type":"Feature","geometry":{"type":"Point","coordinates":[-75.1635787,39.9295452]},"properties":{"name":"Vanilya","address":"1611 E Passyunk Ave Philadelphia, PA 19148"}},{"type":"Feature","geometry":{"type":"Point","coordinates":[-75.1175008,40.0814585]},"properties":{"name":"The Cheesecake Lady","address":"910 Township Line Rd Elkins Park, PA 19027"}},{"type":"Feature","geometry":{"type":"Point","coordinates":[-75.1781931,39.9690246]},"properties":{"name":"Musette","address":"2441 Aspen St Philadelphia, PA 19130"}},{"type":"Feature","geometry":{"type":"Point","coordinates":[-75.1522841,39.9194849]},"properties":{"name":"The Bakery","address":"2300 S 3rd St Philadelphia, PA 19148"}},{"type":"Feature","geometry":{"type":"Point","coordinates":[-75.1739458,39.9267275]},"properties":{"name":"High Fidelity Bakery","address":"1929 S 17th St Philadelphia, PA 19145"}},{"type":"Feature","geometry":{"type":"Point","coordinates":[-75.5535982999999,40.0388517]},"properties":{"name":"Strawberry Bakery","address":"365 Lancaster Ave Malvern, PA 19355"}},{"type":"Feature","geometry":{"type":"Point","coordinates":[-75.27771,40.002402]},"properties":{"name":"Nothing Bundt Cakes","address":"333 E Lancaster Ave Wynnewood, PA 19096"}},{"type":"Feature","geometry":{"type":"Point","coordinates":[-75.1564461999999,39.9533132]},"properties":{"name":"Yummy Yummy","address":"52 N 10th St Philadelphia, PA 19107"}},{"type":"Feature","geometry":{"type":"Point","coordinates":[-75.0945593,39.8070495]},"properties":{"name":"Two Sweet Boutique","address":"1526 Hurffville Rd Deptford, NJ 08096"}},{"type":"Feature","geometry":{"type":"Point","coordinates":[-75.1507867,39.9425031]},"properties":{"name":"Desserts by Sprinkled Sweetness","address":"510 S 5th St Philadelphia, PA 19147"}},{"type":"Feature","geometry":{"type":"Point","coordinates":[-75.1528429,39.9258552999999]},"properties":{"name":"Creme Brulee Bistro & Cafe","address":"1800 S 4th St Philadelphia, PA 19148"}},{"type":"Feature","geometry":{"type":"Point","coordinates":[-75.1753514999999,39.9113515]},"properties":{"name":"Termini Bros Bakery","address":"1538 Packer Ave Philadelphia, PA 19145"}},{"type":"Feature","geometry":{"type":"Point","coordinates":[-75.285988,40.0075252]},"properties":{"name":"Stoltzfus Family Foods","address":"120 Coulter Ave Ardmore, PA 19003"}},{"type":"Feature","geometry":{"type":"Point","coordinates":[-75.1554683999999,39.9494611]},"properties":{"name":"High Street Philadelphia","address":"101 S 9th St Philadelphia, PA 19107"}},{"type":"Feature","geometry":{"type":"Point","coordinates":[-75.1685158,39.9166422]},"properties":{"name":"Carangi Baking","address":"2655 S Iseminger St Philadelphia, PA 19148"}},{"type":"Feature","geometry":{"type":"Point","coordinates":[-75.1568645,39.9518026999999]},"properties":{"name":"Tiffany's Bakery","address":"1001 Market St Philadelphia, PA 19107"}},{"type":"Feature","geometry":{"type":"Point","coordinates":[-75.1717214,39.9525105]},"properties":{"name":"El Café","address":"31 S 19th St Philadelphia, PA 19103"}},{"type":"Feature","geometry":{"type":"Point","coordinates":[-75.1560283,39.9540019]},"properties":{"name":"Asia Bakery","address":"115 N 10th St Philadelphia, PA 19107"}},{"type":"Feature","geometry":{"type":"Point","coordinates":[-75.1453829,39.950653]},"properties":{"name":"ICI Macarons & Cafe - Temp. CLOSED","address":"11 N 3rd St Philadelphia, PA 19106"}},{"type":"Feature","geometry":{"type":"Point","coordinates":[-75.4814873,40.0424007]},"properties":{"name":"Cakeposer","address":"43 E Lancaster Ave Paoli, PA 19301"}},{"type":"Feature","geometry":{"type":"Point","coordinates":[-75.2033585,39.954332]},"properties":{"name":"Metropolitan Bakery","address":"4013 Walnut St Philadelphia, PA 19104"}},{"type":"Feature","geometry":{"type":"Point","coordinates":[-75.2249568,40.0261433]},"properties":{"name":"Crust Vegan Bakery","address":"4409 Main St Philadelphia, PA 19127"}},{"type":"Feature","geometry":{"type":"Point","coordinates":[-74.9508355999999,40.1360039]},"properties":{"name":"Fritz's Bakery","address":"4201 Neshaminy Blvd Bensalem, PA 19020"}},{"type":"Feature","geometry":{"type":"Point","coordinates":[-75.1423248999999,39.9495456]},"properties":{"name":"Cuor di Caffè","address":"100 Market St Philadelphia, PA 19106"}},{"type":"Feature","geometry":{"type":"Point","coordinates":[-75.1932206,40.0085583]},"properties":{"name":"Famous 4th Street Cookie - Ridge Avenue","address":"4177 Ridge Ave Philadelphia, PA 19129"}},{"type":"Feature","geometry":{"type":"Point","coordinates":[-75.1536263,39.9472898]},"properties":{"name":"Talula's Daily","address":"208 W Washington Square Philadelphia, PA 19106"}},{"type":"Feature","geometry":{"type":"Point","coordinates":[-75.2253664,39.956403]},"properties":{"name":"Brown Sugar Bakery & Cafe","address":"219 S 52nd St Philadelphia, PA 19139"}},{"type":"Feature","geometry":{"type":"Point","coordinates":[-75.0437599999999,40.0355296]},"properties":{"name":"Gino's Bakery","address":"7142 Frankford Ave Philadelphia, PA 19135"}},{"type":"Feature","geometry":{"type":"Point","coordinates":[-75.3094662,39.8863918]},"properties":{"name":"Traub's Bakery","address":"1020 Lincoln Ave Prospect Park, PA 19076"}},{"type":"Feature","geometry":{"type":"Point","coordinates":[-75.3009932,40.0131423]},"properties":{"name":"Tous Les Jours","address":"393 West Lancaster Ave Haverford, PA 19041"}},{"type":"Feature","geometry":{"type":"Point","coordinates":[-75.2256381999999,40.0305802]},"properties":{"name":"Flakely","address":"220 Krams Ave Philadelphia, PA 19127"}},{"type":"Feature","geometry":{"type":"Point","coordinates":[-75.3518759,40.0839812]},"properties":{"name":"LeBus Bakery Outlet","address":"479 Shoemaker Rd King of Prussia, PA 19406"}},{"type":"Feature","geometry":{"type":"Point","coordinates":[-75.1584142999999,39.9521671]},"properties":{"name":"La Madeleine French Bakery & Cafe","address":"1101 Market St Philadelphia, PA 19107"}},{"type":"Feature","geometry":{"type":"Point","coordinates":[-75.1584719,39.9537075]},"properties":{"name":"Sweet As Fudge Candy Shoppe","address":"12th & Arch St Reading Terminal Market Philadelphia, PA 19107"}},{"type":"Feature","geometry":{"type":"Point","coordinates":[-75.1958735,40.046183]},"properties":{"name":"High Point Cafe","address":"602 Carpenter Ln Philadelphia, PA 19119"}},{"type":"Feature","geometry":{"type":"Point","coordinates":[-75.1164587,39.980073]},"properties":{"name":"Little Susie's Coffee & Pie","address":"2532 E Lehigh Ave Philadelphia, PA 19125"}},{"type":"Feature","geometry":{"type":"Point","coordinates":[-75.1704065999999,39.9168991]},"properties":{"name":"Pop's Homemade Water Ice","address":"1337 W Oregon Ave Philadelphia, PA 19148"}},{"type":"Feature","geometry":{"type":"Point","coordinates":[-75.2304037999999,40.0131418]},"properties":{"name":"Jimmies Cupcake","address":"Philadelphia, PA 19004"}},{"type":"Feature","geometry":{"type":"Point","coordinates":[-75.2357067,40.0571691]},"properties":{"name":"T & F Farmers Pride","address":"8101 Ridge Ave Philadelphia, PA 19128"}},{"type":"Feature","geometry":{"type":"Point","coordinates":[-75.1836884,39.9527663]},"properties":{"name":"Old Nelson Food Company","address":"129 S 30th St Philadelphia, PA 19104"}},{"type":"Feature","geometry":{"type":"Point","coordinates":[-75.1176342,40.0445123]},"properties":{"name":"Paris Baguette","address":"6201 N Front St Philadelphia, PA 19120"}},{"type":"Feature","geometry":{"type":"Point","coordinates":[-75.1492124,39.9408249]},"properties":{"name":"Queen Village Food Market & Deli","address":"629 South 4th St Philadelphia, PA 19147"}},{"type":"Feature","geometry":{"type":"Point","coordinates":[-75.2436063999999,39.8759591]},"properties":{"name":"La Colombe","address":"8500 Essington Ave Philadelphia, PA 19153"}},{"type":"Feature","geometry":{"type":"Point","coordinates":[-75.0314503,40.0722624]},"properties":{"name":"Netcost Market","address":"2417 Welsh Rd Philadelphia, PA 19114"}},{"type":"Feature","geometry":{"type":"Point","coordinates":[-75.1270254,39.9764555]},"properties":{"name":"ReAnimator Coffee","address":"1523 E Susquehanna Ave Philadelphia, PA 19125"}},{"type":"Feature","geometry":{"type":"Point","coordinates":[-75.3195987,39.9576434]},"properties":{"name":"Pagano's","address":"1216 W Township Line Rd Drexel Hill, PA 19026"}},{"type":"Feature","geometry":{"type":"Point","coordinates":[-75.0749579,40.0424187]},"properties":{"name":"C1 Bakery Cafe","address":"6610 Castor Ave Philadelphia, PA 19149"}},{"type":"Feature","geometry":{"type":"Point","coordinates":[-74.875999,40.1655797]},"properties":{"name":"Italian Peoples Bakery - Levittown","address":"1142 Woodbourne Rd Levittown, PA 19056"}},{"type":"Feature","geometry":{"type":"Point","coordinates":[-75.1624324,39.9308767]},"properties":{"name":"B2","address":"1500 E Passyunk Ave Philadelphia, PA 19147"}},{"type":"Feature","geometry":{"type":"Point","coordinates":[-75.1741139,39.8962095]},"properties":{"name":"Tastykake","address":"3 Crescent Dr Ste 200 Philadelphia, PA 19112"}},{"type":"Feature","geometry":{"type":"Point","coordinates":[-75.3003895,40.0802691]},"properties":{"name":"feine","address":"812 Fayette St Conshohocken, PA 19428"}},{"type":"Feature","geometry":{"type":"Point","coordinates":[-75.4057804,40.0833115999999]},"properties":{"name":"Founding Farmers First Bake Cafe & Creamery","address":"255 Main St Ste 180 King of Prussia, PA 19406"}},{"type":"Feature","geometry":{"type":"Point","coordinates":[-75.1621032,39.9679042]},"properties":{"name":"Zuzu's Kitchen","address":"1500 Ridge Ave Philadelphia, PA 19130"}},{"type":"Feature","geometry":{"type":"Point","coordinates":[-75.1405144,39.9642176]},"properties":{"name":"Rustica","address":"903 N 2nd St Philadelphia, PA 19123"}},{"type":"Feature","geometry":{"type":"Point","coordinates":[-74.8334095,40.1714303]},"properties":{"name":"Piazza's Bakery","address":"20 Penn Valley Rd Levittown, PA 19054"}},{"type":"Feature","geometry":{"type":"Point","coordinates":[-75.2224610999999,40.0252014]},"properties":{"name":"Insomnia Cookies","address":"4319 Main St Philadelphia, PA 19127"}},{"type":"Feature","geometry":{"type":"Point","coordinates":[-75.1594404,39.9459601999999]},"properties":{"name":"Honey Bee Gourmet Deli","address":"1034 Spruce St Philadelphia, PA 19107"}},{"type":"Feature","geometry":{"type":"Point","coordinates":[-74.8432808,40.116649]},"properties":{"name":"Mary's Gourmet Donut Shoppe","address":"498 Green Ln Bristol, PA 19007"}},{"type":"Feature","geometry":{"type":"Point","coordinates":[-75.1736466,39.9532883]},"properties":{"name":"The Coventry Deli","address":"2000 Market St Philadelphia, PA 19103"}},{"type":"Feature","geometry":{"type":"Point","coordinates":[-75.0099092,39.9864119]},"properties":{"name":"The Original Mart Soft Pretzel Bakery","address":"202 Rt 130 N Cinnaminson, NJ 08077"}},{"type":"Feature","geometry":{"type":"Point","coordinates":[-75.1225927999999,40.0215333]},"properties":{"name":"Cafe Tinto","address":"143 E Wyoming Ave Philadelphia, PA 19120"}},{"type":"Feature","geometry":{"type":"Point","coordinates":[-75.0325932,39.7248301]},"properties":{"name":"Arc Specialty Bakery","address":"704 Tuckahoe Rd Sewell, NJ 08080"}},{"type":"Feature","geometry":{"type":"Point","coordinates":[-75.174132,39.941174]},"properties":{"name":"19 Degrees","address":"1847 Christian St Philadelphia, PA 19146"}},{"type":"Feature","geometry":{"type":"Point","coordinates":[-75.0578051,39.7878909999999]},"properties":{"name":"Cacia's Bakery","address":"1010 S Black Horse Pike Blackwood, NJ 08012"}},{"type":"Feature","geometry":{"type":"Point","coordinates":[-75.1474351999999,39.9409875]},"properties":{"name":"South Street Philly Bagels","address":"613 S 3rd St Philadelphia, PA 19147"}},{"type":"Feature","geometry":{"type":"Point","coordinates":[-75.1464338,39.9701339]},"properties":{"name":"Mammoth Coffee","address":"534 W Girard Ave Philadelphia, PA 19123"}},{"type":"Feature","geometry":{"type":"Point","coordinates":[-75.1818408,40.0455016]},"properties":{"name":"Germantown Espresso Bar","address":"6369 Germantown Ave Philadelphia, PA 19144"}},{"type":"Feature","geometry":{"type":"Point","coordinates":[-75.1938737999999,39.9509138]},"properties":{"name":"Insomnia Cookies","address":"3417 Spruce St Philadelphia, PA 19104"}},{"type":"Feature","geometry":{"type":"Point","coordinates":[-75.1798003,39.9515389]},"properties":{"name":"Spread Bagelry","address":"2401 Walnut St Philadelphia, PA 19103"}},{"type":"Feature","geometry":{"type":"Point","coordinates":[-75.1420536,39.9348071]},"properties":{"name":"Shanks Original","address":"901 S Columbus Blvd Pier 40 Philadelphia, PA 19147"}},{"type":"Feature","geometry":{"type":"Point","coordinates":[-75.2131497,39.9491783]},"properties":{"name":"Alif Brew & Mini Mart","address":"4501 Baltimore Ave Philadelphia, PA 19143"}},{"type":"Feature","geometry":{"type":"Point","coordinates":[-75.1442084999999,39.9559463999999]},"properties":{"name":"Torch-Wood Cafe","address":"303 N 3rd St Philadelphia, PA 19106"}},{"type":"Feature","geometry":{"type":"Point","coordinates":[-75.1733465,39.9208607]},"properties":{"name":"PrimoHoagies","address":"1528 W Ritner St Philadelphia, PA 19145"}},{"type":"Feature","geometry":{"type":"Point","coordinates":[-75.1646502999999,39.9161532]},"properties":{"name":"Oregon Steaks","address":"2654 S 10th St Philadelphia, PA 19148"}},{"type":"Feature","geometry":{"type":"Point","coordinates":[-75.1753521,39.9113318]},"properties":{"name":"Celebre Pizzeria","address":"1536 Packer Ave Philadelphia, PA 19145"}},{"type":"Feature","geometry":{"type":"Point","coordinates":[-75.240738,39.880669]},"properties":{"name":"Le Bus","address":"Terminal F Southwest Philadelphia, PA 19153"}},{"type":"Feature","geometry":{"type":"Point","coordinates":[-75.1504451,39.9374733]},"properties":{"name":"The Bagel Place","address":"404 Queen St Philadelphia, PA 19147"}},{"type":"Feature","geometry":{"type":"Point","coordinates":[-75.1825159999999,39.9557002]},"properties":{"name":"Au Bon Pain","address":"2951 Market St Philadelphia, PA 19104"}},{"type":"Feature","geometry":{"type":"Point","coordinates":[-75.3332932,40.2089455]},"properties":{"name":"Merrymead Farm","address":"2222 S Valley Forge Rd Lansdale, PA 19446"}},{"type":"Feature","geometry":{"type":"Point","coordinates":[-75.1966906,39.9483552]},"properties":{"name":"Au Bon Pain","address":"421 Curie Blvd Philadelphia, PA 19104"}},{"type":"Feature","geometry":{"type":"Point","coordinates":[-75.1793102,39.9244464999999]},"properties":{"name":"Nick's Old Original Roast Beef","address":"2149 S 20th St Philadelphia, PA 19145"}},{"type":"Feature","geometry":{"type":"Point","coordinates":[-75.0703669999999,39.9168814]},"properties":{"name":"Grooveground","address":"647 Haddon Ave Collingswood, NJ 08108"}},{"type":"Feature","geometry":{"type":"Point","coordinates":[-75.0524813,40.0599798]},"properties":{"name":"Dattilo's Delicatessen","address":"8000 Horrocks St Philadelphia, PA 19152"}},{"type":"Feature","geometry":{"type":"Point","coordinates":[-75.1567535,39.9534207]},"properties":{"name":"Kung Fu Tea","address":"1006 Arch St Philadelphia, PA 19107"}},{"type":"Feature","geometry":{"type":"Point","coordinates":[-75.2090767,39.9497951]},"properties":{"name":"The Green Line Cafe","address":"4239 Baltimore Ave Philadelphia, PA 19104"}},{"type":"Feature","geometry":{"type":"Point","coordinates":[-75.340426,40.1053826]},"properties":{"name":"Suzy-Jo Donuts","address":"49 E 4th St Bridgeport, PA 19405"}},{"type":"Feature","geometry":{"type":"Point","coordinates":[-74.9991823,39.8277966]},"properties":{"name":"Del Buono's Bakery","address":"303 S White Horse Pike Stratford, NJ 08084"}},{"type":"Feature","geometry":{"type":"Point","coordinates":[-75.0485777999999,39.9523149]},"properties":{"name":"The Station","address":"10 E Chestnut Ave Merchantville, NJ 08109"}},{"type":"Feature","geometry":{"type":"Point","coordinates":[-75.0575506,39.91273]},"properties":{"name":"Krispy Kreme","address":"1170 Haddon Ave Collingswood, NJ 08108"}},{"type":"Feature","geometry":{"type":"Point","coordinates":[-75.1590983999999,39.9531593]},"properties":{"name":"Old City Coffee","address":"1136 Arch St Philadelphia, PA 19107"}},{"type":"Feature","geometry":{"type":"Point","coordinates":[-75.2749578999999,40.2510277]},"properties":{"name":"Hearth Baker","address":"1118 N Broad St Lansdale, PA 19446"}},{"type":"Feature","geometry":{"type":"Point","coordinates":[-75.0638068,39.7338119]},"properties":{"name":"Mama Buntz Donut","address":"421 Hurffville - Cross Keys Rd Sewell, NJ 08080"}},{"type":"Feature","geometry":{"type":"Point","coordinates":[-75.1381748,39.9690877]},"properties":{"name":"Pancho's Café","address":"152 West Girard Ave Philadelphia, PA 19123"}},{"type":"Feature","geometry":{"type":"Point","coordinates":[-75.5428862999999,40.0413579]},"properties":{"name":"Dixie Picnic","address":"215 Lancaster Ave Malvern, PA 19355"}},{"type":"Feature","geometry":{"type":"Point","coordinates":[-74.9244322,39.8928282]},"properties":{"name":"Del Buono's Bakery","address":"34 West Route 70 Marlton, NJ 08053"}},{"type":"Feature","geometry":{"type":"Point","coordinates":[-75.1630885,39.9451402]},"properties":{"name":"Last Drop","address":"1300 Pine St Philadelphia, PA 19107"}},{"type":"Feature","geometry":{"type":"Point","coordinates":[-75.1677625,39.952012]},"properties":{"name":"Au Bon Pain","address":"1625 Chestnut St Philadelphia, PA 19103"}},{"type":"Feature","geometry":{"type":"Point","coordinates":[-75.0865427,40.1806769]},"properties":{"name":"Angels Donuts","address":"267 E County Line Rd Hatboro, PA 19040"}},{"type":"Feature","geometry":{"type":"Point","coordinates":[null,null]},"properties":{"name":"Tasty Way","address":"N/A"}},{"type":"Feature","geometry":{"type":"Point","coordinates":[-75.1584142999999,39.9521671]},"properties":{"name":"Cinnabon","address":"1101 Market St Philadelphia, PA 19107"}},{"type":"Feature","geometry":{"type":"Point","coordinates":[-75.2163983,40.0348452]},"properties":{"name":"Lennie's Hoagies","address":"6141 Ridge Ave Philadelphia, PA 19128"}},{"type":"Feature","geometry":{"type":"Point","coordinates":[-75.1755348,39.9432012]},"properties":{"name":"Fitzwater Street Philly Bagels","address":"2001 Fitzwater St Philadelphia, PA 19146"}},{"type":"Feature","geometry":{"type":"Point","coordinates":[-75.1624758999999,39.9464555]},"properties":{"name":"Jay's Deli","address":"1228 Spruce St Philadelphia, PA 19107"}},{"type":"Feature","geometry":{"type":"Point","coordinates":[-75.1517557,40.0091292]},"properties":{"name":"Donut Plus","address":"1400 W Erie Ave Philadelphia, PA 19140"}},{"type":"Feature","geometry":{"type":"Point","coordinates":[-75.1925667,39.9557137]},"properties":{"name":"7-Eleven","address":"3440 Market St Philadelphia, PA 19104"}},{"type":"Feature","geometry":{"type":"Point","coordinates":[-75.17011,39.925596]},"properties":{"name":"Philly Pretzel Factory","address":"1401 W Passyunk Ave Philadelphia, PA 19145"}},{"type":"Feature","geometry":{"type":"Point","coordinates":[-75.1889353999999,40.0827542]},"properties":{"name":"Locals Coffee & Eatery","address":"909 E Willow Grove Ave Wyndmoor, PA 19038"}},{"type":"Feature","geometry":{"type":"Point","coordinates":[-75.2624214,39.9602467]},"properties":{"name":"Five Points Coffee","address":"47 Long Ln Upper Darby, PA 19082"}},{"type":"Feature","geometry":{"type":"Point","coordinates":[-75.4042229,40.2274214]},"properties":{"name":"Skippack Village Italian Market","address":"4101 Skippack Pike Skippack Village, PA 19474"}},{"type":"Feature","geometry":{"type":"Point","coordinates":[-75.3718462,39.9829224]},"properties":{"name":"The Original Bagel","address":"2914 W Chester Pike Broomall, PA 19008"}},{"type":"Feature","geometry":{"type":"Point","coordinates":[-75.0017202,39.8309829]},"properties":{"name":"Tim Hortons","address":"57 White Horse Pike Stratford, NJ 08084"}},{"type":"Feature","geometry":{"type":"Point","coordinates":[-75.0811871,40.029444]},"properties":{"name":"Great Awakenings Cafe","address":"1466 E Cheltenham Ave Philadelphia, PA 19124"}},{"type":"Feature","geometry":{"type":"Point","coordinates":[-75.5139753999999,40.1340778]},"properties":{"name":"Soltane Cafe","address":"138 Bridge St Phoenixville, PA 19460"}},{"type":"Feature","geometry":{"type":"Point","coordinates":[-74.9494413,39.8960677]},"properties":{"name":"Cacia's Bakery - Cherry Hill","address":"2081 Old Marlton Pike Cherry Hill, NJ 08003"}},{"type":"Feature","geometry":{"type":"Point","coordinates":[-74.9951122,39.687047]},"properties":{"name":"Cacia's Bakery","address":"25 Sicklerville Rd Monroe Township, NJ 08094"}},{"type":"Feature","geometry":{"type":"Point","coordinates":[-74.9445412,39.9649741]},"properties":{"name":"Cupcake Carnivale","address":"55 E Main St Moorestown, NJ 08057"}},{"type":"Feature","geometry":{"type":"Point","coordinates":[-75.2227004,39.9476547]},"properties":{"name":"The Satellite Cafe","address":"701 S 50th St Philadelphia, PA 19143"}},{"type":"Feature","geometry":{"type":"Point","coordinates":[-75.4051841,40.0833767]},"properties":{"name":"Duck Donuts","address":"201 Main St Ste 160 King Of Prussia, PA 19406"}},{"type":"Feature","geometry":{"type":"Point","coordinates":[-75.1255772,39.8445408]},"properties":{"name":"Bagelicous","address":"1200 Delsea Dr Westville, NJ 08093"}},{"type":"Feature","geometry":{"type":"Point","coordinates":[-75.1950445,39.9543347]},"properties":{"name":"Wawa","address":"3604 Chestnut St Philadelphia, PA 19104"}},{"type":"Feature","geometry":{"type":"Point","coordinates":[-75.1610472,39.9345344]},"properties":{"name":"Antonio's Deli","address":"1014 Federal St Philadelphia, PA 19147"}},{"type":"Feature","geometry":{"type":"Point","coordinates":[-75.1689025,39.9501583]},"properties":{"name":"Capital One Café","address":"135 S 17th St Ste A Philadelphia, PA 19103"}},{"type":"Feature","geometry":{"type":"Point","coordinates":[-74.8760629,40.1657066]},"properties":{"name":"Hmart","address":"1138 Bristol Oxford Valley Rd Levittown, PA 19057"}},{"type":"Feature","geometry":{"type":"Point","coordinates":[-75.1907705,39.9574412]},"properties":{"name":"Saxbys","address":"65 N 34th St Philadelphia, PA 19104"}},{"type":"Feature","geometry":{"type":"Point","coordinates":[-74.975398,40.0954861]},"properties":{"name":"Reen's Delicatessen","address":"12319 Academy Rd Parkwood Shopping Ctr Philadelphia, PA 19154"}},{"type":"Feature","geometry":{"type":"Point","coordinates":[-75.1633583999999,39.9296792]},"properties":{"name":"Rival Bros Coffee","address":"1100 Tasker St Philadelphia, PA 19148"}},{"type":"Feature","geometry":{"type":"Point","coordinates":[-75.1176560999999,39.9796117]},"properties":{"name":"The Freshworks of Port Richmond","address":"2634 Belgrade St Philadelphia, PA 19125"}},{"type":"Feature","geometry":{"type":"Point","coordinates":[-74.8473834,40.1020468]},"properties":{"name":"Mazzanti's Market","address":"320 Lincoln Ave Bristol, PA 19007"}},{"type":"Feature","geometry":{"type":"Point","coordinates":[-75.3173015,40.0219473999999]},"properties":{"name":"Up-RYES Bagel & Deli","address":"22 N Bryn Mawr Ave Bryn Mawr, PA 19010"}},{"type":"Feature","geometry":{"type":"Point","coordinates":[-75.1584719,39.9537075]},"properties":{"name":"Hatville Deli","address":"1136 Arch St Reading Terminal Market Philadelphia, PA 19107"}},{"type":"Feature","geometry":{"type":"Point","coordinates":[-75.1054097,40.179464]},"properties":{"name":"silvio's deli","address":"100 N York Rd Ste B Hatboro, PA 19040"}},{"type":"Feature","geometry":{"type":"Point","coordinates":[-75.4703956,39.7129711]},"properties":{"name":"Deeb's Bread","address":"257 Shell Rd Carneys Point, NJ 08069"}},{"type":"Feature","geometry":{"type":"Point","coordinates":[-75.5207478,40.1412783]},"properties":{"name":"Heart Stone","address":"400 Franklin Ave Franklin Commons Phoenixville, PA 19460"}}]}