{"type": "FeatureCollection", "features": [{"type": "Feature", "geometry": {"type": "Point", "coordinates": [-75.174133, 39.9484101]}, "properties": {"Bakery": "The Bakeshop on 20th", "Address": "269 S 20th St Philadelphia, PA 19103"}}, {"type": "Feature", "geometry": {"type": "Point", "coordinates": [-75.1834594, 40.0487702]}, "properties": {"Bakery": "The Frosted Fox Cake Shop", "Address": "6511 Germantown Ave Philadelphia, PA 19119"}}, {"type": "Feature", "geometry": {"type": "Point", "coordinates": [-75.1409523, 39.9616445]}, "properties": {"Bakery": "The Kettle Black", "Address": "631 N 2nd St Philadelphia, PA 19123"}}, {"type": "Feature", "geometry": {"type": "Point", "coordinates": [-75.2852968, 39.8901648]}, "properties": {"Bakery": "Crumble Factory", "Address": "2004 Delmar Dr Folcroft, PA 19032"}}, {"type": "Feature", "geometry": {"type": "Point", "coordinates": [-75.1438627, 39.9518037]}, "properties": {"Bakery": "Tartes Pastry Shop", "Address": "212 Arch St Philadelphia, PA 19106"}}, {"type": "Feature", "geometry": {"type": "Point", "coordinates": [-75.1421791, 39.9649649]}, "properties": {"Bakery": "Tartes Pastry Shop", "Address": "901 N 3rd St Philadelphia, PA 19123"}}, {"type": "Feature", "geometry": {"type": "Point", "coordinates": [-75.132352, 39.9711799]}, "properties": {"Bakery": "Ramona Susan's Bake Shop", "Address": "1255 Marlborough St Philadelphia, PA 19125"}}, {"type": "Feature", "geometry": {"type": "Point", "coordinates": [-75.1584719, 39.9537075]}, "properties": {"Bakery": "Pennsylvania General Store", "Address": "51 N 12th St Reading Terminal Market Philadelphia, PA 19107"}}, {"type": "Feature", "geometry": {"type": "Point", "coordinates": [-75.2023802, 40.0724965]}, "properties": {"Bakery": "Bredenbeck's Bakery & Ice Cream Parlor", "Address": "8126 Germantown Ave Philadelphia, PA 19118"}}, {"type": "Feature", "geometry": {"type": "Point", "coordinates": [-75.1347412, 39.9704611]}, "properties": {"Bakery": "Cake Life Bake Shop", "Address": "1306 Frankford Ave Philadelphia, PA 19125"}}, {"type": "Feature", "geometry": {"type": "Point", "coordinates": [-75.1620478, 39.9669063]}, "properties": {"Bakery": "Coffee Cream & Dreams", "Address": "1436 Fairmount Ave Philadelphia, PA 19130"}}, {"type": "Feature", "geometry": {"type": "Point", "coordinates": [-75.2939271, 40.087003]}, "properties": {"Bakery": "Pretty Tasty Cupcakes", "Address": "1602 Butler Pike Conshohocken, PA 19428"}}, {"type": "Feature", "geometry": {"type": "Point", "coordinates": [-75.0745278, 39.8997611]}, "properties": {"Bakery": "GF Sweeties", "Address": "1001 White Horse Pike Soha Arts Building Haddon Township, NJ 08107"}}, {"type": "Feature", "geometry": {"type": "Point", "coordinates": [-75.1593829, 39.9535983]}, "properties": {"Bakery": "Sweet Nina's", "Address": "51 N 12th St Philadelphia, PA 19107"}}, {"type": "Feature", "geometry": {"type": "Point", "coordinates": [-75.1584719, 39.9537075]}, "properties": {"Bakery": "The Famous 4th Street Cookie Company", "Address": "51 N 12th St Reading Terminal Market Philadelphia, PA 19107"}}, {"type": "Feature", "geometry": {"type": "Point", "coordinates": [-75.1584719, 39.9537075]}, "properties": {"Bakery": "Flying Monkey Bakery", "Address": "12th St & Arch St Reading Terminal Market Philadelphia, PA 19176"}}, {"type": "Feature", "geometry": {"type": "Point", "coordinates": [-75.2900583, 40.009061]}, "properties": {"Bakery": "maman", "Address": "49 Anderson Ave Ardmore, PA 19003"}}, {"type": "Feature", "geometry": {"type": "Point", "coordinates": [-75.2610549, 40.0113601]}, "properties": {"Bakery": "A La Mousse", "Address": "920 Montgomery Ave Narberth, PA 19072"}}, {"type": "Feature", "geometry": {"type": "Point", "coordinates": [-75.2617992, 40.0053029]}, "properties": {"Bakery": "Little Blue Owl Baking", "Address": "207 Haverford Ave Narberth, PA 19072"}}, {"type": "Feature", "geometry": {"type": "Point", "coordinates": [-75.1175265, 40.0813532]}, "properties": {"Bakery": "Sprinkles", "Address": "908 Township Line Rd Elkins Park, PA 19027"}}, {"type": "Feature", "geometry": {"type": "Point", "coordinates": [-75.1706505, 39.949295]}, "properties": {"Bakery": "Aurora Grace", "Address": "225 S 18th St Philadelphia, PA 19103"}}, {"type": "Feature", "geometry": {"type": "Point", "coordinates": [-75.1302524, 39.9790846]}, "properties": {"Bakery": "Cake & Joe", "Address": "2012 Frankford Ave Philadelphia, PA 19125"}}, {"type": "Feature", "geometry": {"type": "Point", "coordinates": [-75.0080444, 39.8538103]}, "properties": {"Bakery": "Sweet Eats Bakery", "Address": "310 S Burnt Mill Rd Voorhees, NJ 08043"}}, {"type": "Feature", "geometry": {"type": "Point", "coordinates": [-75.1225928, 40.0215333]}, "properties": {"Bakery": "Cafe Tinto", "Address": "143 E Wyoming Ave Philadelphia, PA 19120"}}, {"type": "Feature", "geometry": {"type": "Point", "coordinates": [-75.1463654, 39.9504012]}, "properties": {"Bakery": "3j's Caf\u00e9", "Address": "317 Market St Philadelphia, PA 19106"}}, {"type": "Feature", "geometry": {"type": "Point", "coordinates": [-75.102252, 39.7791924]}, "properties": {"Bakery": "Stella! Baking Company", "Address": "160 Delsea Dr Sewell, NJ 08080"}}, {"type": "Feature", "geometry": {"type": "Point", "coordinates": [-75.0811871, 40.029444]}, "properties": {"Bakery": "Great Awakenings Cafe", "Address": "1466 E Cheltenham Ave Philadelphia, PA 19124"}}, {"type": "Feature", "geometry": {"type": "Point", "coordinates": [-75.27771, 40.002402]}, "properties": {"Bakery": "Nothing Bundt Cakes", "Address": "333 E Lancaster Ave Wynnewood, PA 19096"}}, {"type": "Feature", "geometry": {"type": "Point", "coordinates": [-75.1757636, 39.9520461]}, "properties": {"Bakery": "Black Turtle Coffee", "Address": "2100 Chestnut St Fl 1 Philadelphia, PA 19103"}}, {"type": "Feature", "geometry": {"type": "Point", "coordinates": [-75.27771, 40.002402]}, "properties": {"Bakery": "Nothing Bundt Cakes", "Address": "333 E Lancaster Ave Wynnewood, PA 19096"}}, {"type": "Feature", "geometry": {"type": "Point", "coordinates": [-75.2316524, 39.9751027]}, "properties": {"Bakery": "Candy's Sweets Bakery", "Address": "5502 Media St Philadelphia, PA 19131"}}, {"type": "Feature", "geometry": {"type": "Point", "coordinates": [-75.275181, 40.2518171]}, "properties": {"Bakery": "Three Legged Hare", "Address": "1213 Walnut St Lansdale, PA 19446"}}, {"type": "Feature", "geometry": {"type": "Point", "coordinates": [-75.1717171, 40.0048305]}, "properties": {"Bakery": "Maliya's Sweets Shack", "Address": "3226 N Bambrey St Philadelphia, PA 19129"}}, {"type": "Feature", "geometry": {"type": "Point", "coordinates": [-75.1926314, 40.0137114]}, "properties": {"Bakery": "Vault + Vine", "Address": "3507 Midvale Ave Philadelphia, PA 19129"}}, {"type": "Feature", "geometry": {"type": "Point", "coordinates": [-74.937228, 40.2261739]}, "properties": {"Bakery": "Mamie Colette", "Address": "202 South State St Newtown, PA 18940"}}, {"type": "Feature", "geometry": {"type": "Point", "coordinates": [-75.1726736, 39.9245926]}, "properties": {"Bakery": "Caf\u00e9 Chocolate", "Address": "1532 Snyder Ave Philadelphia, PA 19145"}}, {"type": "Feature", "geometry": {"type": "Point", "coordinates": [-75.387693, 39.9167783]}, "properties": {"Bakery": "Sylvie's French Bakery", "Address": "Media, PA 19063"}}, {"type": "Feature", "geometry": {"type": "Point", "coordinates": [-75.1590984, 39.9531593]}, "properties": {"Bakery": "Old City Coffee", "Address": "1136 Arch St Philadelphia, PA 19107"}}, {"type": "Feature", "geometry": {"type": "Point", "coordinates": [-75.3116583, 40.0179441]}, "properties": {"Bakery": "The Bakery House", "Address": "604 W Lancaster Ave Bryn Mawr, PA 19010"}}, {"type": "Feature", "geometry": {"type": "Point", "coordinates": [-75.1311676, 39.7329124]}, "properties": {"Bakery": "Crave Pitman", "Address": "9 S Bdwy Pitman, NJ 08071"}}, {"type": "Feature", "geometry": {"type": "Point", "coordinates": [-75.2507524, 39.9335775]}, "properties": {"Bakery": "Pound Cake Heaven", "Address": "714 Church Ln Yeadon, PA 19050"}}, {"type": "Feature", "geometry": {"type": "Point", "coordinates": [-75.1513393, 39.9398487]}, "properties": {"Bakery": "Three Graces Coffee", "Address": "719 E Passyunk Ave Philadelphia, PA 19147"}}, {"type": "Feature", "geometry": {"type": "Point", "coordinates": [-74.9226665, 40.1745538]}, "properties": {"Bakery": "Creative Cakes by Carolyn", "Address": "Langhorne, PA 19047"}}, {"type": "Feature", "geometry": {"type": "Point", "coordinates": [-75.179504, 39.9704416]}, "properties": {"Bakery": "Brown Street Coffee & B\u00e1nhery", "Address": "2545 Brown St Philadelphia, PA 19130"}}, {"type": "Feature", "geometry": {"type": "Point", "coordinates": [-75.44338, 40.0472123]}, "properties": {"Bakery": "Clay's Creative Corner Bakery", "Address": "700 Lancaster Ave Berwyn, PA 19312"}}, {"type": "Feature", "geometry": {"type": "Point", "coordinates": [-75.1270881, 40.0954843]}, "properties": {"Bakery": "Velvet Sky Bakery", "Address": "307 Leedom St Jenkintown, PA 19046"}}, {"type": "Feature", "geometry": {"type": "Point", "coordinates": [-75.2600924, 40.0062191]}, "properties": {"Bakery": "Nana's Kitchen & Catering", "Address": "109 N Narberth Ave Narberth, PA 19072"}}, {"type": "Feature", "geometry": {"type": "Point", "coordinates": [-75.3233048, 39.8793514]}, "properties": {"Bakery": "The BrickHaus", "Address": "13 E Hinckley Ave Ridley Park, PA 19078"}}, {"type": "Feature", "geometry": {"type": "Point", "coordinates": [-75.0461586, 39.7586191]}, "properties": {"Bakery": "Sweet Talk Cafe", "Address": "5600 Rte 42 Unit 19 Washington Twp, NJ 08012"}}, {"type": "Feature", "geometry": {"type": "Point", "coordinates": [-75.1456349, 39.9427703]}, "properties": {"Bakery": "Bloomsday Cafe", "Address": "414 S 2nd St Philadelphia, PA 19147"}}, {"type": "Feature", "geometry": {"type": "Point", "coordinates": [-75.1447855, 39.9411523]}, "properties": {"Bakery": "Queen & Rook Game Cafe", "Address": "123 South St Philadelphia, PA 19147"}}, {"type": "Feature", "geometry": {"type": "Point", "coordinates": [-75.0261823, 39.9422428]}, "properties": {"Bakery": "WOOPS! Cherry Hill", "Address": "2000 NJ-38 Cherry Hill Mall Cherry Hill, NJ 08002"}}, {"type": "Feature", "geometry": {"type": "Point", "coordinates": [-75.3979719, 40.2237271]}, "properties": {"Bakery": "Blossom Cafe", "Address": "4007 Skippack Pike Skippack, PA 19474"}}, {"type": "Feature", "geometry": {"type": "Point", "coordinates": [-75.1698478, 39.9557316]}, "properties": {"Bakery": "Kupkake Mamas", "Address": "100 N 18th St Ste 300 Philadelphia, PA 19103"}}, {"type": "Feature", "geometry": {"type": "Point", "coordinates": [-75.5435972, 39.8580477]}, "properties": {"Bakery": "Cupcake Sisters", "Address": "364 Wilmington West Chester Pike Unit 5A Glen Mills, PA 19342"}}, {"type": "Feature", "geometry": {"type": "Point", "coordinates": [-74.8593884, 40.0797904]}, "properties": {"Bakery": "Glassy Brown Cookies", "Address": "224 High St Burlington, NJ 08016"}}, {"type": "Feature", "geometry": {"type": "Point", "coordinates": [-75.5435686, 40.183505]}, "properties": {"Bakery": "Pink Moose Ice Cream Cafe and Catering", "Address": "147 Main St Royersford, PA 19468"}}, {"type": "Feature", "geometry": {"type": "Point", "coordinates": [-75.2246377, 39.7407387]}, "properties": {"Bakery": "Amici Mullica Hill", "Address": "69 North Main St Mullica Hill, NJ 08062"}}, {"type": "Feature", "geometry": {"type": "Point", "coordinates": [-75.1681921, 39.9260701]}, "properties": {"Bakery": "Ground Up Coffee Shop", "Address": "1926 E Passyunk Ave Philadelphia, PA 19148"}}, {"type": "Feature", "geometry": {"type": "Point", "coordinates": [-75.2119001, 39.9549389]}, "properties": {"Bakery": "Jezabel's", "Address": "206-208 S 45th St Philadelphia, PA 19104"}}, {"type": "Feature", "geometry": {"type": "Point", "coordinates": [-75.1772925, 39.9396287]}, "properties": {"Bakery": "Cafe Ynez", "Address": "2025 Washington Ave Philadelphia, PA 19146"}}, {"type": "Feature", "geometry": {"type": "Point", "coordinates": [-75.2962972, 39.9292791]}, "properties": {"Bakery": "Danyelas Bakery", "Address": "Clifton Heights, PA 19018"}}, {"type": "Feature", "geometry": {"type": "Point", "coordinates": [-75.1788111, 39.9845964]}, "properties": {"Bakery": "Momma T's Soulfood", "Address": "2715 W Berks St Philadelphia, PA 19121"}}, {"type": "Feature", "geometry": {"type": "Point", "coordinates": [-75.1936913, 40.0733427]}, "properties": {"Bakery": "Zana Cakes", "Address": "7715 Crittenden St Ste 339 Philadelphia, PA 19118"}}, {"type": "Feature", "geometry": {"type": "Point", "coordinates": [-75.022856, 40.0401818]}, "properties": {"Bakery": "Superset Sweets", "Address": "4300 Holmesburg Ave Philadelphia, PA 19136"}}, {"type": "Feature", "geometry": {"type": "Point", "coordinates": [-75.164759, 39.948415]}, "properties": {"Bakery": "Tuscany Cafe", "Address": "230 S Broad St Philadelphia, PA 19102"}}, {"type": "Feature", "geometry": {"type": "Point", "coordinates": [-75.0552739, 40.0203813]}, "properties": {"Bakery": "Lysa's Cake'tique", "Address": "Philadelphia, PA 19135"}}, {"type": "Feature", "geometry": {"type": "Point", "coordinates": [-75.0485778, 39.9523149]}, "properties": {"Bakery": "The Station", "Address": "10 E Chestnut Ave Merchantville, NJ 08109"}}, {"type": "Feature", "geometry": {"type": "Point", "coordinates": [-75.2975627, 40.2081162]}, "properties": {"Bakery": "Sweet Nettie Catering", "Address": "1820 W Point Pike Lansdale, PA 19446"}}, {"type": "Feature", "geometry": {"type": "Point", "coordinates": [-75.4146989, 40.0964569]}, "properties": {"Bakery": "Dipped by De", "Address": "1150 1st Ave Ste 511 King of Prussia, PA 19406"}}, {"type": "Feature", "geometry": {"type": "Point", "coordinates": [-75.0325932, 39.7248301]}, "properties": {"Bakery": "Rias sweet creations", "Address": "704 Tuckahoe Rd Sewell, NJ 08080"}}, {"type": "Feature", "geometry": {"type": "Point", "coordinates": [-74.7881708, 39.9928465]}, "properties": {"Bakery": "Robin's Nest Restaurant", "Address": "2 Washington St Mount Holly, NJ 08060"}}, {"type": "Feature", "geometry": {"type": "Point", "coordinates": [-74.9914749, 39.9966039]}, "properties": {"Bakery": "Bagelati", "Address": "1096 Rte 130 Cinnaminson, NJ 08077"}}, {"type": "Feature", "geometry": {"type": "Point", "coordinates": [-75.1889354, 40.0827542]}, "properties": {"Bakery": "Locals Coffee & Eatery", "Address": "909 E Willow Grove Ave Wyndmoor, PA 19038"}}, {"type": "Feature", "geometry": {"type": "Point", "coordinates": [-75.17011, 39.925596]}, "properties": {"Bakery": "Philly Pretzel Factory", "Address": "1401 W Passyunk Ave Philadelphia, PA 19145"}}, {"type": "Feature", "geometry": {"type": "Point", "coordinates": [-75.5781945, 39.7295742]}, "properties": {"Bakery": "Cakes by Kim", "Address": "15 Germay Dr Ste 200 Wilmington, DE 19804"}}, {"type": "Feature", "geometry": {"type": "Point", "coordinates": [-74.8589347, 40.0809266]}, "properties": {"Bakery": "Evermore Coffee Roasters", "Address": "1 E Pearl St Ste A Burlington, NJ 08016"}}, {"type": "Feature", "geometry": {"type": "Point", "coordinates": [-75.046301, 40.1699094]}, "properties": {"Bakery": "2nd Street Bagels", "Address": "496 2nd St Pike Southampton, PA 18966"}}, {"type": "Feature", "geometry": {"type": "Point", "coordinates": [-75.4962739, 40.2122543]}, "properties": {"Bakery": "Barrister's Bagels", "Address": "1814 E Ridge Pike Ste 100 Upper Providence Shopping Ctr Royersford, PA 19468"}}]}