HEALTHCARE,ADDRESS,Latitude,Longitude
Catholic Community Services,"4040 S 188th St, Suite 300, SeaTac, WA 98188",47.4347675,-122.2824819
Consejo Counseling & Referral,"8615 14th Ave. South, Seattle, WA 98108",47.5259523,-122.3152778
Center for Multi-Cultural Health,"1120 East Terrace Street Seattle, WA ",47.6053732,-122.3170977
HealthPoint,"13030 Military Road South, Second Floor, Tukwila, WA 98168",47.4859174,-122.2950897
Lutheran Community Services NW,"4040 S 188th St, Suite 300, SeaTac, WA 98188",47.4347675,-122.2824819
Refugee Women’s Alliance,"4008 Martin Luther King, Jr. Way South, Seattle, WA 98108",47.5677124,-122.295988
SeaMar Community Health Centers,"1040 S. Henderson St., Seattle, WA 98108",47.5240138,-122.3186793